{
    "_id" : ObjectId("59a47286cfa9a3a73e51e72c"),
    "theaterId" : NumberInt(1000),
    "location" : {
        "address" : {
            "street1" : "340 W Market",
            "city" : "Bloomington",
            "state" : "MN",
            "zipcode" : "55425"
        },
        "geo" : {
            "type" : "Point",
            "coordinates" : [
                -93.24565,
                44.85466
            ]
        }
    }
}
{
    "_id" : ObjectId("59a47286cfa9a3a73e51e72d"),
    "theaterId" : NumberInt(1003),
    "location" : {
        "address" : {
            "street1" : "45235 Worth Ave.",
            "city" : "California",
            "state" : "MD",
            "zipcode" : "20619"
        },
        "geo" : {
            "type" : "Point",
            "coordinates" : [
                -76.512016,
                38.29697
            ]
        }
    }
}
{
    "_id" : ObjectId("59a47286cfa9a3a73e51e72e"),
    "theaterId" : NumberInt(1008),
    "location" : {
        "address" : {
            "street1" : "1621 E Monte Vista Ave",
            "city" : "Vacaville",
            "state" : "CA",
            "zipcode" : "95688"
        },
        "geo" : {
            "type" : "Point",
            "coordinates" : [
                -121.96328,
                38.367649
            ]
        }
    }
}
{
    "_id" : ObjectId("59a47286cfa9a3a73e51e72f"),
    "theaterId" : NumberInt(1004),
    "location" : {
        "address" : {
            "street1" : "5072 Pinnacle Sq",
            "city" : "Birmingham",
            "state" : "AL",
            "zipcode" : "35235"
        },
        "geo" : {
            "type" : "Point",
            "coordinates" : [
                -86.642662,
                33.605438
            ]
        }
    }
}
{
    "_id" : ObjectId("59a47286cfa9a3a73e51e730"),
    "theaterId" : NumberInt(1002),
    "location" : {
        "address" : {
            "street1" : "1900 E Rio Salado Pkwy",
            "city" : "Tempe",
            "state" : "AZ",
            "zipcode" : "85281"
        },
        "geo" : {
            "type" : "Point",
            "coordinates" : [
                -111.89966,
                33.430729
            ]
        }
    }
}
{
    "_id" : ObjectId("59a47286cfa9a3a73e51e731"),
    "theaterId" : NumberInt(1010),
    "location" : {
        "address" : {
            "street1" : "1025 Veterans Pkwy",
            "city" : "Clarksville",
            "state" : "IN",
            "zipcode" : "47129"
        },
        "geo" : {
            "type" : "Point",
            "coordinates" : [
                -85.76461,
                38.327175
            ]
        }
    }
}
{
    "_id" : ObjectId("59a47286cfa9a3a73e51e732"),
    "theaterId" : NumberInt(1014),
    "location" : {
        "address" : {
            "street1" : "155 Los Altos Pkwy",
            "city" : "Sparks",
            "state" : "NV",
            "zipcode" : "89436"
        },
        "geo" : {
            "type" : "Point",
            "coordinates" : [
                -119.7412,
                39.579536
            ]
        }
    }
}
{
    "_id" : ObjectId("59a47286cfa9a3a73e51e733"),
    "theaterId" : NumberInt(1012),
    "location" : {
        "address" : {
            "street1" : "1207 W Century Ave",
            "city" : "Bismarck",
            "state" : "ND",
            "zipcode" : "58503"
        },
        "geo" : {
            "type" : "Point",
            "coordinates" : [
                -100.81213,
                46.829876
            ]
        }
    }
}
{
    "_id" : ObjectId("59a47286cfa9a3a73e51e734"),
    "theaterId" : NumberInt(1009),
    "location" : {
        "address" : {
            "street1" : "6310 E Pacific Coast Hwy",
            "city" : "Long Beach",
            "state" : "CA",
            "zipcode" : "90803"
        },
        "geo" : {
            "type" : "Point",
            "coordinates" : [
                -118.11414,
                33.760353
            ]
        }
    }
}
{
    "_id" : ObjectId("59a47286cfa9a3a73e51e735"),
    "theaterId" : NumberInt(1013),
    "location" : {
        "address" : {
            "street1" : "9901 Brook Rd",
            "city" : "Glen Allen",
            "state" : "VA",
            "zipcode" : "23059"
        },
        "geo" : {
            "type" : "Point",
            "coordinates" : [
                -77.459908,
                37.667957
            ]
        }
    }
}
{
    "_id" : ObjectId("59a47286cfa9a3a73e51e736"),
    "theaterId" : NumberInt(1017),
    "location" : {
        "address" : {
            "street1" : "4325 Sunset Dr",
            "city" : "San Angelo",
            "state" : "TX",
            "zipcode" : "76904"
        },
        "geo" : {
            "type" : "Point",
            "coordinates" : [
                -100.50107,
                31.435648
            ]
        }
    }
}
{
    "_id" : ObjectId("59a47286cfa9a3a73e51e737"),
    "theaterId" : NumberInt(1018),
    "location" : {
        "address" : {
            "street1" : "1307 E Gladstone St",
            "city" : "Glendora",
            "state" : "CA",
            "zipcode" : "91740"
        },
        "geo" : {
            "type" : "Point",
            "coordinates" : [
                -117.83625,
                34.11612
            ]
        }
    }
}
{
    "_id" : ObjectId("59a47286cfa9a3a73e51e738"),
    "theaterId" : NumberInt(1015),
    "location" : {
        "address" : {
            "street1" : "1721 Osgood Dr",
            "city" : "Altoona",
            "state" : "PA",
            "zipcode" : "16602"
        },
        "geo" : {
            "type" : "Point",
            "coordinates" : [
                -78.382912,
                40.490524
            ]
        }
    }
}
{
    "_id" : ObjectId("59a47286cfa9a3a73e51e739"),
    "theaterId" : NumberInt(1011),
    "location" : {
        "address" : {
            "street1" : "740 S Sepulveda Blvd",
            "city" : "El Segundo",
            "state" : "CA",
            "zipcode" : "90245"
        },
        "geo" : {
            "type" : "Point",
            "coordinates" : [
                -118.3960826,
                33.9051385
            ]
        }
    }
}
{
    "_id" : ObjectId("59a47286cfa9a3a73e51e73a"),
    "theaterId" : NumberInt(1019),
    "location" : {
        "address" : {
            "street1" : "390 Northridge Mall",
            "city" : "Salinas",
            "state" : "CA",
            "zipcode" : "93906"
        },
        "geo" : {
            "type" : "Point",
            "coordinates" : [
                -121.65946,
                36.715809
            ]
        }
    }
}
{
    "_id" : ObjectId("59a47286cfa9a3a73e51e73b"),
    "theaterId" : NumberInt(101),
    "location" : {
        "address" : {
            "street1" : "25422 El Paseo",
            "city" : "Mission Viejo",
            "state" : "CA",
            "zipcode" : "92691"
        },
        "geo" : {
            "type" : "Point",
            "coordinates" : [
                -117.674814,
                33.590599
            ]
        }
    }
}
{
    "_id" : ObjectId("59a47286cfa9a3a73e51e73c"),
    "theaterId" : NumberInt(1021),
    "location" : {
        "address" : {
            "street1" : "700 Du Bois St",
            "city" : "San Rafael",
            "state" : "CA",
            "zipcode" : "94901"
        },
        "geo" : {
            "type" : "Point",
            "coordinates" : [
                -122.51875,
                37.966579
            ]
        }
    }
}
{
    "_id" : ObjectId("59a47286cfa9a3a73e51e73d"),
    "theaterId" : NumberInt(1020),
    "location" : {
        "address" : {
            "street1" : "79220 Hwy 111",
            "city" : "La Quinta",
            "state" : "CA",
            "zipcode" : "92253"
        },
        "geo" : {
            "type" : "Point",
            "coordinates" : [
                -116.28111,
                33.709164
            ]
        }
    }
}
{
    "_id" : ObjectId("59a47286cfa9a3a73e51e73e"),
    "theaterId" : NumberInt(1026),
    "location" : {
        "address" : {
            "street1" : "95 Elm St",
            "city" : "Enfield",
            "state" : "CT",
            "zipcode" : "06082"
        },
        "geo" : {
            "type" : "Point",
            "coordinates" : [
                -72.583824,
                41.998211
            ]
        }
    }
}
{
    "_id" : ObjectId("59a47286cfa9a3a73e51e73f"),
    "theaterId" : NumberInt(1023),
    "location" : {
        "address" : {
            "street1" : "823 N Creek Dr",
            "city" : "Sherman",
            "state" : "TX",
            "zipcode" : "75092"
        },
        "geo" : {
            "type" : "Point",
            "coordinates" : [
                -96.608055,
                33.685692
            ]
        }
    }
}
{
    "_id" : ObjectId("59a47286cfa9a3a73e51e740"),
    "theaterId" : NumberInt(1022),
    "location" : {
        "address" : {
            "street1" : "609 Potomac Station Dr NE",
            "city" : "Leesburg",
            "state" : "VA",
            "zipcode" : "20176"
        },
        "geo" : {
            "type" : "Point",
            "coordinates" : [
                -77.532104,
                39.098255
            ]
        }
    }
}
{
    "_id" : ObjectId("59a47286cfa9a3a73e51e741"),
    "theaterId" : NumberInt(1025),
    "location" : {
        "address" : {
            "street1" : "17200 Mercantile Blvd",
            "city" : "Noblesville",
            "state" : "IN",
            "zipcode" : "46060"
        },
        "geo" : {
            "type" : "Point",
            "coordinates" : [
                -85.990822,
                40.038788
            ]
        }
    }
}
{
    "_id" : ObjectId("59a47286cfa9a3a73e51e742"),
    "theaterId" : NumberInt(1024),
    "location" : {
        "address" : {
            "street1" : "138 E Interstate 20",
            "street2" : "Ste 120",
            "city" : "Weatherford",
            "state" : "TX",
            "zipcode" : "76087"
        },
        "geo" : {
            "type" : "Point",
            "coordinates" : [
                -97.783157,
                32.727791
            ]
        }
    }
}
{
    "_id" : ObjectId("59a47286cfa9a3a73e51e743"),
    "theaterId" : NumberInt(1027),
    "location" : {
        "address" : {
            "street1" : "5944 Quebec St",
            "city" : "Fort Worth",
            "state" : "TX",
            "zipcode" : "76135"
        },
        "geo" : {
            "type" : "Point",
            "coordinates" : [
                -97.429245,
                32.804398
            ]
        }
    }
}
{
    "_id" : ObjectId("59a47286cfa9a3a73e51e744"),
    "theaterId" : NumberInt(1028),
    "location" : {
        "address" : {
            "street1" : "529 5th Ave",
            "city" : "New York",
            "state" : "NY",
            "zipcode" : "10017"
        },
        "geo" : {
            "type" : "Point",
            "coordinates" : [
                -73.980011,
                40.754333
            ]
        }
    }
}
{
    "_id" : ObjectId("59a47286cfa9a3a73e51e745"),
    "theaterId" : NumberInt(1037),
    "location" : {
        "address" : {
            "street1" : "312 Newnan Crossing Byp E",
            "city" : "Newnan",
            "state" : "GA",
            "zipcode" : "30265"
        },
        "geo" : {
            "type" : "Point",
            "coordinates" : [
                -84.758972,
                33.393749
            ]
        }
    }
}
{
    "_id" : ObjectId("59a47286cfa9a3a73e51e746"),
    "theaterId" : NumberInt(1029),
    "location" : {
        "address" : {
            "street1" : "3105 E Main St",
            "city" : "Mohegan Lake",
            "state" : "NY",
            "zipcode" : "10547"
        },
        "geo" : {
            "type" : "Point",
            "coordinates" : [
                -73.871277,
                41.310825
            ]
        }
    }
}
{
    "_id" : ObjectId("59a47286cfa9a3a73e51e747"),
    "theaterId" : NumberInt(1038),
    "location" : {
        "address" : {
            "street1" : "6060 Long Prairie Rd",
            "city" : "Flower Mound",
            "state" : "TX",
            "zipcode" : "75028"
        },
        "geo" : {
            "type" : "Point",
            "coordinates" : [
                -97.080109,
                33.06926
            ]
        }
    }
}
{
    "_id" : ObjectId("59a47286cfa9a3a73e51e748"),
    "theaterId" : NumberInt(1030),
    "location" : {
        "address" : {
            "street1" : "5890 N Elizabeth St",
            "city" : "Pueblo",
            "state" : "CO",
            "zipcode" : "81008"
        },
        "geo" : {
            "type" : "Point",
            "coordinates" : [
                -104.61839,
                38.329201
            ]
        }
    }
}
{
    "_id" : ObjectId("59a47286cfa9a3a73e51e749"),
    "theaterId" : NumberInt(1034),
    "location" : {
        "address" : {
            "street1" : "3404 W 13th St",
            "city" : "Grand Island",
            "state" : "NE",
            "zipcode" : "68803"
        },
        "geo" : {
            "type" : "Point",
            "coordinates" : [
                -98.382164,
                40.933624
            ]
        }
    }
}
{
    "_id" : ObjectId("59a47286cfa9a3a73e51e74a"),
    "theaterId" : NumberInt(1031),
    "location" : {
        "address" : {
            "street1" : "1740 30th St",
            "city" : "Boulder",
            "state" : "CO",
            "zipcode" : "80301"
        },
        "geo" : {
            "type" : "Point",
            "coordinates" : [
                -105.25302,
                40.01675
            ]
        }
    }
}
{
    "_id" : ObjectId("59a47286cfa9a3a73e51e74b"),
    "theaterId" : NumberInt(1032),
    "location" : {
        "address" : {
            "street1" : "1900 Market Place Blvd",
            "city" : "Irving",
            "state" : "TX",
            "zipcode" : "75063"
        },
        "geo" : {
            "type" : "Point",
            "coordinates" : [
                -96.972069,
                32.920174
            ]
        }
    }
}
{
    "_id" : ObjectId("59a47286cfa9a3a73e51e74c"),
    "theaterId" : NumberInt(1047),
    "location" : {
        "address" : {
            "street1" : "2411 S Kensington Dr",
            "city" : "Appleton",
            "state" : "WI",
            "zipcode" : "54915"
        },
        "geo" : {
            "type" : "Point",
            "coordinates" : [
                -88.359596,
                44.241451
            ]
        }
    }
}
{
    "_id" : ObjectId("59a47286cfa9a3a73e51e74d"),
    "theaterId" : NumberInt(1035),
    "location" : {
        "address" : {
            "street1" : "2041 Highway 287 N",
            "city" : "Mansfield",
            "state" : "TX",
            "zipcode" : "76063"
        },
        "geo" : {
            "type" : "Point",
            "coordinates" : [
                -97.150681,
                32.598038
            ]
        }
    }
}
{
    "_id" : ObjectId("59a47286cfa9a3a73e51e74e"),
    "theaterId" : NumberInt(1036),
    "location" : {
        "address" : {
            "street1" : "950 County Road 64",
            "city" : "Elmira",
            "state" : "NY",
            "zipcode" : "14903"
        },
        "geo" : {
            "type" : "Point",
            "coordinates" : [
                -76.874817,
                42.153339
            ]
        }
    }
}
{
    "_id" : ObjectId("59a47286cfa9a3a73e51e74f"),
    "theaterId" : NumberInt(102),
    "location" : {
        "address" : {
            "street1" : "1800 Plaza Dr.",
            "city" : "West Covina",
            "state" : "CA",
            "zipcode" : "91790"
        },
        "geo" : {
            "type" : "Point",
            "coordinates" : [
                -117.92427,
                34.071552
            ]
        }
    }
}
{
    "_id" : ObjectId("59a47286cfa9a3a73e51e750"),
    "theaterId" : NumberInt(1039),
    "location" : {
        "address" : {
            "street1" : "115 Lycoming Mall Cir",
            "city" : "Muncy",
            "state" : "PA",
            "zipcode" : "17756"
        },
        "geo" : {
            "type" : "Point",
            "coordinates" : [
                -76.831116,
                41.244911
            ]
        }
    }
}
{
    "_id" : ObjectId("59a47286cfa9a3a73e51e751"),
    "theaterId" : NumberInt(103),
    "location" : {
        "address" : {
            "street1" : "17545 Gale Ave",
            "city" : "City Of Industry",
            "state" : "CA",
            "zipcode" : "91748"
        },
        "geo" : {
            "type" : "Point",
            "coordinates" : [
                -117.92119,
                33.996811
            ]
        }
    }
}
{
    "_id" : ObjectId("59a47286cfa9a3a73e51e752"),
    "theaterId" : NumberInt(1043),
    "location" : {
        "address" : {
            "street1" : "1240 Marvin Rd Ne",
            "city" : "Lacey",
            "state" : "WA",
            "zipcode" : "98516"
        },
        "geo" : {
            "type" : "Point",
            "coordinates" : [
                -122.76134,
                47.058128
            ]
        }
    }
}
{
    "_id" : ObjectId("59a47286cfa9a3a73e51e753"),
    "theaterId" : NumberInt(1044),
    "location" : {
        "address" : {
            "street1" : "6950 Arroyo Crossing Pkwy",
            "city" : "Las Vegas",
            "state" : "NV",
            "zipcode" : "89113"
        },
        "geo" : {
            "type" : "Point",
            "coordinates" : [
                -115.24371,
                36.064461
            ]
        }
    }
}
{
    "_id" : ObjectId("59a47286cfa9a3a73e51e754"),
    "theaterId" : NumberInt(1045),
    "location" : {
        "address" : {
            "street1" : "2460 E Charleston Rd",
            "city" : "Mountain View",
            "state" : "CA",
            "zipcode" : "94043"
        },
        "geo" : {
            "type" : "Point",
            "coordinates" : [
                -122.09568,
                37.423073
            ]
        }
    }
}
{
    "_id" : ObjectId("59a47286cfa9a3a73e51e755"),
    "theaterId" : NumberInt(1055),
    "location" : {
        "address" : {
            "street1" : "1235 Town Centre Dr",
            "street2" : "Ste F1",
            "city" : "Eagan",
            "state" : "MN",
            "zipcode" : "55123"
        },
        "geo" : {
            "type" : "Point",
            "coordinates" : [
                -93.152992,
                44.83189
            ]
        }
    }
}
{
    "_id" : ObjectId("59a47286cfa9a3a73e51e756"),
    "theaterId" : NumberInt(1016),
    "location" : {
        "address" : {
            "street1" : "2407 Highway 93 N",
            "city" : "Kalispell",
            "state" : "MT",
            "zipcode" : "59901"
        },
        "geo" : {
            "type" : "Point",
            "coordinates" : [
                -114.33124,
                48.239506
            ]
        }
    }
}
{
    "_id" : ObjectId("59a47286cfa9a3a73e51e757"),
    "theaterId" : NumberInt(1048),
    "location" : {
        "address" : {
            "street1" : "17800 S Halsted St",
            "city" : "Homewood",
            "state" : "IL",
            "zipcode" : "60430"
        },
        "geo" : {
            "type" : "Point",
            "coordinates" : [
                -87.637192,
                41.56646
            ]
        }
    }
}
{
    "_id" : ObjectId("59a47286cfa9a3a73e51e758"),
    "theaterId" : NumberInt(1050),
    "location" : {
        "address" : {
            "street1" : "1600 Center Rd",
            "city" : "Avon",
            "state" : "OH",
            "zipcode" : "44011"
        },
        "geo" : {
            "type" : "Point",
            "coordinates" : [
                -82.017853,
                41.466305
            ]
        }
    }
}
{
    "_id" : ObjectId("59a47286cfa9a3a73e51e759"),
    "theaterId" : NumberInt(1049),
    "location" : {
        "address" : {
            "street1" : "2703 Hwy 54",
            "city" : "Peachtree City",
            "state" : "GA",
            "zipcode" : "30269"
        },
        "geo" : {
            "type" : "Point",
            "coordinates" : [
                -84.597,
                33.397484
            ]
        }
    }
}
{
    "_id" : ObjectId("59a47286cfa9a3a73e51e75a"),
    "theaterId" : NumberInt(1051),
    "location" : {
        "address" : {
            "street1" : "7001 Fayetteville Rd",
            "city" : "Durham",
            "state" : "NC",
            "zipcode" : "27713"
        },
        "geo" : {
            "type" : "Point",
            "coordinates" : [
                -78.934631,
                35.907135
            ]
        }
    }
}
{
    "_id" : ObjectId("59a47286cfa9a3a73e51e75b"),
    "theaterId" : NumberInt(1052),
    "location" : {
        "address" : {
            "street1" : "1145 Commons Cir",
            "city" : "Plover",
            "state" : "WI",
            "zipcode" : "54467"
        },
        "geo" : {
            "type" : "Point",
            "coordinates" : [
                -89.515335,
                44.522335
            ]
        }
    }
}
{
    "_id" : ObjectId("59a47286cfa9a3a73e51e75c"),
    "theaterId" : NumberInt(104),
    "location" : {
        "address" : {
            "street1" : "5000 W 147th St",
            "city" : "Hawthorne",
            "state" : "CA",
            "zipcode" : "90250"
        },
        "geo" : {
            "type" : "Point",
            "coordinates" : [
                -118.36559,
                33.897167
            ]
        }
    }
}
{
    "_id" : ObjectId("59a47286cfa9a3a73e51e75d"),
    "theaterId" : NumberInt(1053),
    "location" : {
        "address" : {
            "street1" : "7000 Arundel Mills Circle",
            "street2" : "Ste F1",
            "city" : "Hanover",
            "state" : "MD",
            "zipcode" : "21076"
        },
        "geo" : {
            "type" : "Point",
            "coordinates" : [
                -76.725204,
                39.155998
            ]
        }
    }
}
{
    "_id" : ObjectId("59a47286cfa9a3a73e51e75e"),
    "theaterId" : NumberInt(1046),
    "location" : {
        "address" : {
            "street1" : "6600 Lone Tree Way",
            "city" : "Brentwood",
            "state" : "CA",
            "zipcode" : "94513"
        },
        "geo" : {
            "type" : "Point",
            "coordinates" : [
                -121.72911,
                37.963871
            ]
        }
    }
}
{
    "_id" : ObjectId("59a47286cfa9a3a73e51e75f"),
    "theaterId" : NumberInt(1064),
    "location" : {
        "address" : {
            "street1" : "401 S Mt Juliet Rd",
            "city" : "Mt Juliet",
            "state" : "TN",
            "zipcode" : "37122"
        },
        "geo" : {
            "type" : "Point",
            "coordinates" : [
                -86.509552,
                36.164974
            ]
        }
    }
}
{
    "_id" : ObjectId("59a47286cfa9a3a73e51e760"),
    "theaterId" : NumberInt(1056),
    "location" : {
        "address" : {
            "street1" : "1628 S Signal Butte Rd",
            "city" : "Mesa",
            "state" : "AZ",
            "zipcode" : "85209"
        },
        "geo" : {
            "type" : "Point",
            "coordinates" : [
                -111.60139,
                33.384254
            ]
        }
    }
}
{
    "_id" : ObjectId("59a47286cfa9a3a73e51e761"),
    "theaterId" : NumberInt(1058),
    "location" : {
        "address" : {
            "street1" : "1148 Nw Norman Ave",
            "city" : "Gresham",
            "state" : "OR",
            "zipcode" : "97030"
        },
        "geo" : {
            "type" : "Point",
            "coordinates" : [
                -122.43715,
                45.505295
            ]
        }
    }
}
{
    "_id" : ObjectId("59a47286cfa9a3a73e51e762"),
    "theaterId" : NumberInt(1070),
    "location" : {
        "address" : {
            "street1" : "5591 Hwy 153",
            "city" : "Hixson",
            "state" : "TN",
            "zipcode" : "37343"
        },
        "geo" : {
            "type" : "Point",
            "coordinates" : [
                -85.250465,
                35.148224
            ]
        }
    }
}
{
    "_id" : ObjectId("59a47286cfa9a3a73e51e763"),
    "theaterId" : NumberInt(1061),
    "location" : {
        "address" : {
            "street1" : "101 General Stillwell Dr",
            "city" : "Marina",
            "state" : "CA",
            "zipcode" : "93933"
        },
        "geo" : {
            "type" : "Point",
            "coordinates" : [
                -121.81196,
                36.66708
            ]
        }
    }
}
{
    "_id" : ObjectId("59a47286cfa9a3a73e51e764"),
    "theaterId" : NumberInt(1063),
    "location" : {
        "address" : {
            "street1" : "1018 24th Ave SW",
            "city" : "Minot",
            "state" : "ND",
            "zipcode" : "58701"
        },
        "geo" : {
            "type" : "Point",
            "coordinates" : [
                -101.30759,
                48.203568
            ]
        }
    }
}
{
    "_id" : ObjectId("59a47286cfa9a3a73e51e765"),
    "theaterId" : NumberInt(1066),
    "location" : {
        "address" : {
            "street1" : "7330 191st St",
            "city" : "Tinley Park",
            "state" : "IL",
            "zipcode" : "60477"
        },
        "geo" : {
            "type" : "Point",
            "coordinates" : [
                -87.798416,
                41.550053
            ]
        }
    }
}
{
    "_id" : ObjectId("59a47286cfa9a3a73e51e766"),
    "theaterId" : NumberInt(1076),
    "location" : {
        "address" : {
            "street1" : "32937 Temecula Parkway 79",
            "city" : "Temecula",
            "state" : "CA",
            "zipcode" : "92592"
        },
        "geo" : {
            "type" : "Point",
            "coordinates" : [
                -117.081023,
                33.484079
            ]
        }
    }
}
{
    "_id" : ObjectId("59a47286cfa9a3a73e51e767"),
    "theaterId" : NumberInt(1067),
    "location" : {
        "address" : {
            "street1" : "100 Hawley Ln",
            "city" : "Trumbull",
            "state" : "CT",
            "zipcode" : "06611"
        },
        "geo" : {
            "type" : "Point",
            "coordinates" : [
                -73.152496,
                41.233082
            ]
        }
    }
}
{
    "_id" : ObjectId("59a47286cfa9a3a73e51e768"),
    "theaterId" : NumberInt(1077),
    "location" : {
        "address" : {
            "street1" : "2200 El Mercado Loop",
            "city" : "Sierra Vista",
            "state" : "AZ",
            "zipcode" : "85635"
        },
        "geo" : {
            "type" : "Point",
            "coordinates" : [
                -110.25728,
                31.529169
            ]
        }
    }
}
{
    "_id" : ObjectId("59a47286cfa9a3a73e51e769"),
    "theaterId" : NumberInt(105),
    "location" : {
        "address" : {
            "street1" : "12260 Foothill Blvd",
            "city" : "Rancho Cucamonga",
            "state" : "CA",
            "zipcode" : "91739"
        },
        "geo" : {
            "type" : "Point",
            "coordinates" : [
                -117.537857,
                34.10677
            ]
        }
    }
}
{
    "_id" : ObjectId("59a47286cfa9a3a73e51e76a"),
    "theaterId" : NumberInt(1069),
    "location" : {
        "address" : {
            "street1" : "345 Rockaway Tpke",
            "city" : "Lawrence",
            "state" : "NY",
            "zipcode" : "11559"
        },
        "geo" : {
            "type" : "Point",
            "coordinates" : [
                -73.739922,
                40.626957
            ]
        }
    }
}
{
    "_id" : ObjectId("59a47286cfa9a3a73e51e76b"),
    "theaterId" : NumberInt(1073),
    "location" : {
        "address" : {
            "street1" : "6020 Broadway St",
            "city" : "Quincy",
            "state" : "IL",
            "zipcode" : "62305"
        },
        "geo" : {
            "type" : "Point",
            "coordinates" : [
                -91.321,
                39.93423
            ]
        }
    }
}
{
    "_id" : ObjectId("59a47286cfa9a3a73e51e76c"),
    "theaterId" : NumberInt(1071),
    "location" : {
        "address" : {
            "street1" : "670 Dawsonville Hwy",
            "city" : "Gainesville",
            "state" : "GA",
            "zipcode" : "30501"
        },
        "geo" : {
            "type" : "Point",
            "coordinates" : [
                -83.853539,
                34.297371
            ]
        }
    }
}
{
    "_id" : ObjectId("59a47286cfa9a3a73e51e76d"),
    "theaterId" : NumberInt(1072),
    "location" : {
        "address" : {
            "street1" : "19503 Interstate 45",
            "city" : "Spring",
            "state" : "TX",
            "zipcode" : "77388"
        },
        "geo" : {
            "type" : "Point",
            "coordinates" : [
                -95.431725,
                30.050264
            ]
        }
    }
}
{
    "_id" : ObjectId("59a47286cfa9a3a73e51e76e"),
    "theaterId" : NumberInt(1086),
    "location" : {
        "address" : {
            "street1" : "601 East Jubal Early Dr",
            "city" : "Winchester",
            "state" : "VA",
            "zipcode" : "22601"
        },
        "geo" : {
            "type" : "Point",
            "coordinates" : [
                -78.16511,
                39.16421
            ]
        }
    }
}
{
    "_id" : ObjectId("59a47286cfa9a3a73e51e76f"),
    "theaterId" : NumberInt(1079),
    "location" : {
        "address" : {
            "street1" : "210 Ken Pratt Blvd",
            "city" : "Longmont",
            "state" : "CO",
            "zipcode" : "80501"
        },
        "geo" : {
            "type" : "Point",
            "coordinates" : [
                -105.09621,
                40.15467
            ]
        }
    }
}
{
    "_id" : ObjectId("59a47286cfa9a3a73e51e770"),
    "theaterId" : NumberInt(1088),
    "location" : {
        "address" : {
            "street1" : "162 Santilli Hwy",
            "city" : "Everett",
            "state" : "MA",
            "zipcode" : "02149"
        },
        "geo" : {
            "type" : "Point",
            "coordinates" : [
                -71.06851,
                42.39917
            ]
        }
    }
}
{
    "_id" : ObjectId("59a47286cfa9a3a73e51e771"),
    "theaterId" : NumberInt(1078),
    "location" : {
        "address" : {
            "street1" : "16485 N Marketplace Blvd",
            "city" : "Nampa",
            "state" : "ID",
            "zipcode" : "83687"
        },
        "geo" : {
            "type" : "Point",
            "coordinates" : [
                -116.59116,
                43.611172
            ]
        }
    }
}
{
    "_id" : ObjectId("59a47286cfa9a3a73e51e772"),
    "theaterId" : NumberInt(107),
    "location" : {
        "address" : {
            "street1" : "3675 Pacific Coast Hwy",
            "city" : "Torrance",
            "state" : "CA",
            "zipcode" : "90505"
        },
        "geo" : {
            "type" : "Point",
            "coordinates" : [
                -118.3493,
                33.805847
            ]
        }
    }
}
{
    "_id" : ObjectId("59a47286cfa9a3a73e51e773"),
    "theaterId" : NumberInt(1081),
    "location" : {
        "address" : {
            "street1" : "3142 SE Military Dr",
            "city" : "San Antonio",
            "state" : "TX",
            "zipcode" : "78235"
        },
        "geo" : {
            "type" : "Point",
            "coordinates" : [
                -98.431946,
                29.350693
            ]
        }
    }
}
{
    "_id" : ObjectId("59a47286cfa9a3a73e51e774"),
    "theaterId" : NumberInt(1082),
    "location" : {
        "address" : {
            "street1" : "2003 N Loop 1604 E",
            "city" : "San Antonio",
            "state" : "TX",
            "zipcode" : "78232"
        },
        "geo" : {
            "type" : "Point",
            "coordinates" : [
                -98.464653,
                29.611219
            ]
        }
    }
}
{
    "_id" : ObjectId("59a47286cfa9a3a73e51e775"),
    "theaterId" : NumberInt(1080),
    "location" : {
        "address" : {
            "street1" : "715 W Prien Lake Rd",
            "city" : "Lake Charles",
            "state" : "LA",
            "zipcode" : "70601"
        },
        "geo" : {
            "type" : "Point",
            "coordinates" : [
                -93.225464,
                30.199205
            ]
        }
    }
}
{
    "_id" : ObjectId("59a47286cfa9a3a73e51e776"),
    "theaterId" : NumberInt(1083),
    "location" : {
        "address" : {
            "street1" : "12909 Shops Pkwy",
            "city" : "Bee Cave",
            "state" : "TX",
            "zipcode" : "78738"
        },
        "geo" : {
            "type" : "Point",
            "coordinates" : [
                -97.947754,
                30.310236
            ]
        }
    }
}
{
    "_id" : ObjectId("59a47286cfa9a3a73e51e777"),
    "theaterId" : NumberInt(1094),
    "location" : {
        "address" : {
            "street1" : "10025 N Michigan Rd",
            "city" : "Carmel",
            "state" : "IN",
            "zipcode" : "46032"
        },
        "geo" : {
            "type" : "Point",
            "coordinates" : [
                -86.230759,
                39.934792
            ]
        }
    }
}
{
    "_id" : ObjectId("59a47286cfa9a3a73e51e778"),
    "theaterId" : NumberInt(1095),
    "location" : {
        "address" : {
            "street1" : "50400 Waterside Dr",
            "city" : "Chesterfield",
            "state" : "MI",
            "zipcode" : "48051"
        },
        "geo" : {
            "type" : "Point",
            "coordinates" : [
                -82.8302,
                42.67009
            ]
        }
    }
}
{
    "_id" : ObjectId("59a47286cfa9a3a73e51e779"),
    "theaterId" : NumberInt(1096),
    "location" : {
        "address" : {
            "street1" : "1632 Stringtown Rd",
            "city" : "Grove City",
            "state" : "OH",
            "zipcode" : "43123"
        },
        "geo" : {
            "type" : "Point",
            "coordinates" : [
                -83.043732,
                39.879684
            ]
        }
    }
}
{
    "_id" : ObjectId("59a47286cfa9a3a73e51e77a"),
    "theaterId" : NumberInt(1097),
    "location" : {
        "address" : {
            "street1" : "1100 Oxford Exchange Blvd",
            "city" : "Oxford",
            "state" : "AL",
            "zipcode" : "36203"
        },
        "geo" : {
            "type" : "Point",
            "coordinates" : [
                -85.835876,
                33.604454
            ]
        }
    }
}
{
    "_id" : ObjectId("59a47286cfa9a3a73e51e77b"),
    "theaterId" : NumberInt(106),
    "location" : {
        "address" : {
            "street1" : "39330 10th St W",
            "city" : "Palmdale",
            "state" : "CA",
            "zipcode" : "93551"
        },
        "geo" : {
            "type" : "Point",
            "coordinates" : [
                -118.1447,
                34.597626
            ]
        }
    }
}
{
    "_id" : ObjectId("59a47286cfa9a3a73e51e77c"),
    "theaterId" : NumberInt(1089),
    "location" : {
        "address" : {
            "street1" : "21085 Salmon Run Mall Loop W",
            "city" : "Watertown",
            "state" : "NY",
            "zipcode" : "13601"
        },
        "geo" : {
            "type" : "Point",
            "coordinates" : [
                -75.959389,
                43.97506
            ]
        }
    }
}
{
    "_id" : ObjectId("59a47286cfa9a3a73e51e77d"),
    "theaterId" : NumberInt(108),
    "location" : {
        "address" : {
            "street1" : "12133 Mall Blvd",
            "city" : "Victorville",
            "state" : "CA",
            "zipcode" : "92392"
        },
        "geo" : {
            "type" : "Point",
            "coordinates" : [
                -117.351461,
                34.471948
            ]
        }
    }
}
{
    "_id" : ObjectId("59a47286cfa9a3a73e51e77e"),
    "theaterId" : NumberInt(1091),
    "location" : {
        "address" : {
            "street1" : "60 Smithfield Blvd",
            "city" : "Plattsburgh",
            "state" : "NY",
            "zipcode" : "12901"
        },
        "geo" : {
            "type" : "Point",
            "coordinates" : [
                -73.503448,
                44.700077
            ]
        }
    }
}
{
    "_id" : ObjectId("59a47286cfa9a3a73e51e77f"),
    "theaterId" : NumberInt(1090),
    "location" : {
        "address" : {
            "street1" : "60 Ave Rio Hondo",
            "street2" : "Ste 60",
            "city" : "Bayamon",
            "state" : "PR",
            "zipcode" : "00961"
        },
        "geo" : {
            "type" : "Point",
            "coordinates" : [
                -66.16224,
                18.42217
            ]
        }
    }
}
{
    "_id" : ObjectId("59a47286cfa9a3a73e51e780"),
    "theaterId" : NumberInt(109),
    "location" : {
        "address" : {
            "street1" : "11301 W Pico Blvd",
            "city" : "Los Angeles",
            "state" : "CA",
            "zipcode" : "90064"
        },
        "geo" : {
            "type" : "Point",
            "coordinates" : [
                -118.4389,
                34.035656
            ]
        }
    }
}
{
    "_id" : ObjectId("59a47286cfa9a3a73e51e781"),
    "theaterId" : NumberInt(1099),
    "location" : {
        "address" : {
            "street1" : "16630 Royalton Road",
            "city" : "Strongsville",
            "state" : "OH",
            "zipcode" : "44136"
        },
        "geo" : {
            "type" : "Point",
            "coordinates" : [
                -81.8160406,
                41.313093
            ]
        }
    }
}
{
    "_id" : ObjectId("59a47286cfa9a3a73e51e782"),
    "theaterId" : NumberInt(1101),
    "location" : {
        "address" : {
            "street1" : "329 Tuttle Creek Blvd",
            "city" : "Manhattan",
            "state" : "KS",
            "zipcode" : "66502"
        },
        "geo" : {
            "type" : "Point",
            "coordinates" : [
                -96.559006,
                39.181942
            ]
        }
    }
}
{
    "_id" : ObjectId("59a47286cfa9a3a73e51e783"),
    "theaterId" : NumberInt(1093),
    "location" : {
        "address" : {
            "street1" : "7949 Towne Center Pkwy",
            "city" : "Papillion",
            "state" : "NE",
            "zipcode" : "68046"
        },
        "geo" : {
            "type" : "Point",
            "coordinates" : [
                -96.025322,
                41.136444
            ]
        }
    }
}
{
    "_id" : ObjectId("59a47286cfa9a3a73e51e784"),
    "theaterId" : NumberInt(1104),
    "location" : {
        "address" : {
            "street1" : "2055 N Tomahawk Island Drive",
            "city" : "Portland",
            "state" : "OR",
            "zipcode" : "97217"
        },
        "geo" : {
            "type" : "Point",
            "coordinates" : [
                -122.68615,
                45.61493
            ]
        }
    }
}
{
    "_id" : ObjectId("59a47286cfa9a3a73e51e785"),
    "theaterId" : NumberInt(1092),
    "location" : {
        "address" : {
            "street1" : "3100 14th St Nw",
            "city" : "Washington",
            "state" : "DC",
            "zipcode" : "20010"
        },
        "geo" : {
            "type" : "Point",
            "coordinates" : [
                -77.034,
                38.929
            ]
        }
    }
}
{
    "_id" : ObjectId("59a47286cfa9a3a73e51e786"),
    "theaterId" : NumberInt(10),
    "location" : {
        "address" : {
            "street1" : "1795 County Rd D E",
            "city" : "Maplewood",
            "state" : "MN",
            "zipcode" : "55109"
        },
        "geo" : {
            "type" : "Point",
            "coordinates" : [
                -93.025986,
                45.036556
            ]
        }
    }
}
{
    "_id" : ObjectId("59a47286cfa9a3a73e51e787"),
    "theaterId" : NumberInt(1106),
    "location" : {
        "address" : {
            "street1" : "2323 1st St S",
            "city" : "Willmar",
            "state" : "MN",
            "zipcode" : "56201"
        },
        "geo" : {
            "type" : "Point",
            "coordinates" : [
                -95.039848,
                45.100941
            ]
        }
    }
}
{
    "_id" : ObjectId("59a47286cfa9a3a73e51e788"),
    "theaterId" : NumberInt(1107),
    "location" : {
        "address" : {
            "street1" : "14125 River Gate Pkwy",
            "city" : "Charlotte",
            "state" : "NC",
            "zipcode" : "28273"
        },
        "geo" : {
            "type" : "Point",
            "coordinates" : [
                -80.989288,
                35.101517
            ]
        }
    }
}
{
    "_id" : ObjectId("59a47286cfa9a3a73e51e789"),
    "theaterId" : NumberInt(1109),
    "location" : {
        "address" : {
            "street1" : "10035 W Mcdowell Rd",
            "city" : "Avondale",
            "state" : "AZ",
            "zipcode" : "85323"
        },
        "geo" : {
            "type" : "Point",
            "coordinates" : [
                -112.27374,
                33.463428
            ]
        }
    }
}
{
    "_id" : ObjectId("59a47286cfa9a3a73e51e78a"),
    "theaterId" : NumberInt(1108),
    "location" : {
        "address" : {
            "street1" : "1055 Metropolitan Ave",
            "city" : "Charlotte",
            "state" : "NC",
            "zipcode" : "28204"
        },
        "geo" : {
            "type" : "Point",
            "coordinates" : [
                -80.834904,
                35.213101
            ]
        }
    }
}
{
    "_id" : ObjectId("59a47286cfa9a3a73e51e78b"),
    "theaterId" : NumberInt(1102),
    "location" : {
        "address" : {
            "street1" : "3225 Missouri Blvd",
            "city" : "Jefferson City",
            "state" : "MO",
            "zipcode" : "65109"
        },
        "geo" : {
            "type" : "Point",
            "coordinates" : [
                -92.241463,
                38.580399
            ]
        }
    }
}
{
    "_id" : ObjectId("59a47286cfa9a3a73e51e78c"),
    "theaterId" : NumberInt(1113),
    "location" : {
        "address" : {
            "street1" : "2901 S Dogwood Rd",
            "city" : "El Centro",
            "state" : "CA",
            "zipcode" : "92243"
        },
        "geo" : {
            "type" : "Point",
            "coordinates" : [
                -115.52876,
                32.770676
            ]
        }
    }
}
{
    "_id" : ObjectId("59a47286cfa9a3a73e51e78d"),
    "theaterId" : NumberInt(1115),
    "location" : {
        "address" : {
            "street1" : "13107 40th Road c300",
            "city" : "Flushing",
            "state" : "NY",
            "zipcode" : "11354"
        },
        "geo" : {
            "type" : "Point",
            "coordinates" : [
                -73.83701,
                40.75585
            ]
        }
    }
}
{
    "_id" : ObjectId("59a47286cfa9a3a73e51e78e"),
    "theaterId" : NumberInt(1087),
    "location" : {
        "address" : {
            "street1" : "2865 Concord Rd",
            "city" : "York",
            "state" : "PA",
            "zipcode" : "17402"
        },
        "geo" : {
            "type" : "Point",
            "coordinates" : [
                -76.6757,
                39.98238
            ]
        }
    }
}
{
    "_id" : ObjectId("59a47286cfa9a3a73e51e78f"),
    "theaterId" : NumberInt(1110),
    "location" : {
        "address" : {
            "street1" : "332-A Robert Smalls Pkwy",
            "city" : "Beaufort",
            "state" : "SC",
            "zipcode" : "29906"
        },
        "geo" : {
            "type" : "Point",
            "coordinates" : [
                -80.742401,
                32.42247
            ]
        }
    }
}
{
    "_id" : ObjectId("59a47286cfa9a3a73e51e790"),
    "theaterId" : NumberInt(1119),
    "location" : {
        "address" : {
            "street1" : "2701 Cherry Ave",
            "city" : "Signal Hill",
            "state" : "CA",
            "zipcode" : "90755"
        },
        "geo" : {
            "type" : "Point",
            "coordinates" : [
                -118.16783,
                33.807213
            ]
        }
    }
}
{
    "_id" : ObjectId("59a47286cfa9a3a73e51e791"),
    "theaterId" : NumberInt(1057),
    "location" : {
        "address" : {
            "street1" : "8645 Pulaski Hwy",
            "city" : "Rosedale",
            "state" : "MD",
            "zipcode" : "21237"
        },
        "geo" : {
            "type" : "Point",
            "coordinates" : [
                -76.483322,
                39.33239
            ]
        }
    }
}
{
    "_id" : ObjectId("59a47286cfa9a3a73e51e792"),
    "theaterId" : NumberInt(1085),
    "location" : {
        "address" : {
            "street1" : "16680 Highlands Center Dr",
            "city" : "Bristol",
            "state" : "VA",
            "zipcode" : "24202"
        },
        "geo" : {
            "type" : "Point",
            "coordinates" : [
                -82.11652,
                36.63588
            ]
        }
    }
}
{
    "_id" : ObjectId("59a47286cfa9a3a73e51e793"),
    "theaterId" : NumberInt(110),
    "location" : {
        "address" : {
            "street1" : "3900 Tyler St",
            "city" : "Riverside",
            "state" : "CA",
            "zipcode" : "92503"
        },
        "geo" : {
            "type" : "Point",
            "coordinates" : [
                -117.46361,
                33.914719
            ]
        }
    }
}
{
    "_id" : ObjectId("59a47286cfa9a3a73e51e794"),
    "theaterId" : NumberInt(1084),
    "location" : {
        "address" : {
            "street1" : "5005 E Marketplace Dr",
            "city" : "Flagstaff",
            "state" : "AZ",
            "zipcode" : "86004"
        },
        "geo" : {
            "type" : "Point",
            "coordinates" : [
                -111.57584,
                35.223331
            ]
        }
    }
}
{
    "_id" : ObjectId("59a47286cfa9a3a73e51e795"),
    "theaterId" : NumberInt(1126),
    "location" : {
        "address" : {
            "street1" : "14 Allstate Rd",
            "city" : "Dorchester",
            "state" : "MA",
            "zipcode" : "02125"
        },
        "geo" : {
            "type" : "Point",
            "coordinates" : [
                -71.060478,
                42.327961
            ]
        }
    }
}
{
    "_id" : ObjectId("59a47286cfa9a3a73e51e796"),
    "theaterId" : NumberInt(1120),
    "location" : {
        "address" : {
            "street1" : "1987 Sam Rittenberg Blvd",
            "city" : "Charleston",
            "state" : "SC",
            "zipcode" : "29407"
        },
        "geo" : {
            "type" : "Point",
            "coordinates" : [
                -80.027075,
                32.795545
            ]
        }
    }
}
{
    "_id" : ObjectId("59a47286cfa9a3a73e51e797"),
    "theaterId" : NumberInt(1121),
    "location" : {
        "address" : {
            "street1" : "5101 Frederica St",
            "city" : "Owensboro",
            "state" : "KY",
            "zipcode" : "42301"
        },
        "geo" : {
            "type" : "Point",
            "coordinates" : [
                -87.127319,
                37.719315
            ]
        }
    }
}
{
    "_id" : ObjectId("59a47286cfa9a3a73e51e798"),
    "theaterId" : NumberInt(1118),
    "location" : {
        "address" : {
            "street1" : "230 Calle Federico Costa Hato Rey",
            "city" : "San Juan",
            "state" : "PR",
            "zipcode" : "00918"
        },
        "geo" : {
            "type" : "Point",
            "coordinates" : [
                -66.07188,
                18.42684
            ]
        }
    }
}
{
    "_id" : ObjectId("59a47286cfa9a3a73e51e799"),
    "theaterId" : NumberInt(111),
    "location" : {
        "address" : {
            "street1" : "500 Westminster Mall Rd",
            "city" : "Westminster",
            "state" : "CA",
            "zipcode" : "92683"
        },
        "geo" : {
            "type" : "Point",
            "coordinates" : [
                -118.0133,
                33.750256
            ]
        }
    }
}
{
    "_id" : ObjectId("59a47286cfa9a3a73e51e79a"),
    "theaterId" : NumberInt(1123),
    "location" : {
        "address" : {
            "street1" : "1584 N State Route 50",
            "city" : "Bourbonnais",
            "state" : "IL",
            "zipcode" : "60914"
        },
        "geo" : {
            "type" : "Point",
            "coordinates" : [
                -87.850174,
                41.172596
            ]
        }
    }
}
{
    "_id" : ObjectId("59a47286cfa9a3a73e51e79b"),
    "theaterId" : NumberInt(1098),
    "location" : {
        "address" : {
            "street1" : "2130 Route 70 W",
            "city" : "Cherry Hill",
            "state" : "NJ",
            "zipcode" : "08002"
        },
        "geo" : {
            "type" : "Point",
            "coordinates" : [
                -75.028412,
                39.935669
            ]
        }
    }
}
{
    "_id" : ObjectId("59a47286cfa9a3a73e51e79c"),
    "theaterId" : NumberInt(1125),
    "location" : {
        "address" : {
            "street1" : "2675 Geary Blvd",
            "street2" : "Suite 300",
            "city" : "San Francisco",
            "state" : "CA",
            "zipcode" : "94118"
        },
        "geo" : {
            "type" : "Point",
            "coordinates" : [
                -122.44702,
                37.782257
            ]
        }
    }
}
{
    "_id" : ObjectId("59a47286cfa9a3a73e51e79d"),
    "theaterId" : NumberInt(1124),
    "location" : {
        "address" : {
            "street1" : "585 24 1/2 Rd",
            "city" : "Grand Junction",
            "state" : "CO",
            "zipcode" : "81505"
        },
        "geo" : {
            "type" : "Point",
            "coordinates" : [
                -108.59233,
                39.08596
            ]
        }
    }
}
{
    "_id" : ObjectId("59a47286cfa9a3a73e51e79e"),
    "theaterId" : NumberInt(1127),
    "location" : {
        "address" : {
            "street1" : "3401 Erie Blvd E",
            "city" : "DeWitt",
            "state" : "NY",
            "zipcode" : "13214"
        },
        "geo" : {
            "type" : "Point",
            "coordinates" : [
                -76.069237,
                43.045792
            ]
        }
    }
}
{
    "_id" : ObjectId("59a47286cfa9a3a73e51e79f"),
    "theaterId" : NumberInt(1112),
    "location" : {
        "address" : {
            "street1" : "5311 S Calle Santa Cruz",
            "city" : "Tucson",
            "state" : "AZ",
            "zipcode" : "85706"
        },
        "geo" : {
            "type" : "Point",
            "coordinates" : [
                -110.98976,
                32.15375
            ]
        }
    }
}
{
    "_id" : ObjectId("59a47286cfa9a3a73e51e7a0"),
    "theaterId" : NumberInt(1128),
    "location" : {
        "address" : {
            "street1" : "1182 Admiral Callaghan Lane",
            "city" : "Vallejo",
            "state" : "CA",
            "zipcode" : "94591"
        },
        "geo" : {
            "type" : "Point",
            "coordinates" : [
                -122.2129,
                38.136486
            ]
        }
    }
}
{
    "_id" : ObjectId("59a47286cfa9a3a73e51e7a1"),
    "theaterId" : NumberInt(1129),
    "location" : {
        "address" : {
            "street1" : "10901 Georgia Ave",
            "city" : "Wheaton",
            "state" : "MD",
            "zipcode" : "20902"
        },
        "geo" : {
            "type" : "Point",
            "coordinates" : [
                -77.052582,
                39.035542
            ]
        }
    }
}
{
    "_id" : ObjectId("59a47286cfa9a3a73e51e7a2"),
    "theaterId" : NumberInt(112),
    "location" : {
        "address" : {
            "street1" : "390 N Moorpark Rd",
            "city" : "Thousand Oaks",
            "state" : "CA",
            "zipcode" : "91360"
        },
        "geo" : {
            "type" : "Point",
            "coordinates" : [
                -118.87419,
                34.182625
            ]
        }
    }
}
{
    "_id" : ObjectId("59a47286cfa9a3a73e51e7a3"),
    "theaterId" : NumberInt(1130),
    "location" : {
        "address" : {
            "street1" : "6810 Charlotte Pike",
            "city" : "Nashville",
            "state" : "TN",
            "zipcode" : "37209"
        },
        "geo" : {
            "type" : "Point",
            "coordinates" : [
                -86.89312,
                36.134159
            ]
        }
    }
}
{
    "_id" : ObjectId("59a47286cfa9a3a73e51e7a4"),
    "theaterId" : NumberInt(1131),
    "location" : {
        "address" : {
            "street1" : "3701 Mckinley Pkwy",
            "city" : "Buffalo",
            "state" : "NY",
            "zipcode" : "14219"
        },
        "geo" : {
            "type" : "Point",
            "coordinates" : [
                -78.812096,
                42.790466
            ]
        }
    }
}
{
    "_id" : ObjectId("59a47286cfa9a3a73e51e7a5"),
    "theaterId" : NumberInt(1141),
    "location" : {
        "address" : {
            "street1" : "4210 14th St W",
            "city" : "Bradenton",
            "state" : "FL",
            "zipcode" : "34205"
        },
        "geo" : {
            "type" : "Point",
            "coordinates" : [
                -82.574356,
                27.463388
            ]
        }
    }
}
{
    "_id" : ObjectId("59a47286cfa9a3a73e51e7a6"),
    "theaterId" : NumberInt(1132),
    "location" : {
        "address" : {
            "street1" : "6390 Bayfield Pkwy",
            "city" : "Concord",
            "state" : "NC",
            "zipcode" : "28027"
        },
        "geo" : {
            "type" : "Point",
            "coordinates" : [
                -80.674644,
                35.419713
            ]
        }
    }
}
{
    "_id" : ObjectId("59a47286cfa9a3a73e51e7a7"),
    "theaterId" : NumberInt(1134),
    "location" : {
        "address" : {
            "street1" : "3511 N Salida Ct",
            "city" : "Aurora",
            "state" : "CO",
            "zipcode" : "80011"
        },
        "geo" : {
            "type" : "Point",
            "coordinates" : [
                -104.77771,
                39.764637
            ]
        }
    }
}
{
    "_id" : ObjectId("59a47286cfa9a3a73e51e7a8"),
    "theaterId" : NumberInt(1136),
    "location" : {
        "address" : {
            "street1" : "650 N University Dr",
            "city" : "Coral Springs",
            "state" : "FL",
            "zipcode" : "33071"
        },
        "geo" : {
            "type" : "Point",
            "coordinates" : [
                -80.25539,
                26.23946
            ]
        }
    }
}
{
    "_id" : ObjectId("59a47286cfa9a3a73e51e7a9"),
    "theaterId" : NumberInt(1135),
    "location" : {
        "address" : {
            "street1" : "10033 Gulf Center Dr",
            "city" : "Fort Myers",
            "state" : "FL",
            "zipcode" : "33913"
        },
        "geo" : {
            "type" : "Point",
            "coordinates" : [
                -81.790421,
                26.491123
            ]
        }
    }
}
{
    "_id" : ObjectId("59a47286cfa9a3a73e51e7aa"),
    "theaterId" : NumberInt(1137),
    "location" : {
        "address" : {
            "street1" : "4250 Route 9",
            "city" : "Howell",
            "state" : "NJ",
            "zipcode" : "07731"
        },
        "geo" : {
            "type" : "Point",
            "coordinates" : [
                -74.227783,
                40.147621
            ]
        }
    }
}
{
    "_id" : ObjectId("59a47286cfa9a3a73e51e7ab"),
    "theaterId" : NumberInt(1138),
    "location" : {
        "address" : {
            "street1" : "105 Topsham Fair Mall Rd",
            "city" : "Topsham",
            "state" : "ME",
            "zipcode" : "04086"
        },
        "geo" : {
            "type" : "Point",
            "coordinates" : [
                -69.98002,
                43.93842
            ]
        }
    }
}
{
    "_id" : ObjectId("59a47286cfa9a3a73e51e7ac"),
    "theaterId" : NumberInt(114),
    "location" : {
        "address" : {
            "street1" : "120 E Imperial Hwy",
            "city" : "Fullerton",
            "state" : "CA",
            "zipcode" : "92835"
        },
        "geo" : {
            "type" : "Point",
            "coordinates" : [
                -117.93148,
                33.916073
            ]
        }
    }
}
{
    "_id" : ObjectId("59a47286cfa9a3a73e51e7ad"),
    "theaterId" : NumberInt(1140),
    "location" : {
        "address" : {
            "street1" : "280 School St",
            "city" : "Mansfield",
            "state" : "MA",
            "zipcode" : "02048"
        },
        "geo" : {
            "type" : "Point",
            "coordinates" : [
                -71.22894,
                42.01262
            ]
        }
    }
}
{
    "_id" : ObjectId("59a47286cfa9a3a73e51e7ae"),
    "theaterId" : NumberInt(1142),
    "location" : {
        "address" : {
            "street1" : "555 W Roosevelt Rd",
            "city" : "Chicago",
            "state" : "IL",
            "zipcode" : "60607"
        },
        "geo" : {
            "type" : "Point",
            "coordinates" : [
                -87.64116,
                41.86686
            ]
        }
    }
}
{
    "_id" : ObjectId("59a47286cfa9a3a73e51e7af"),
    "theaterId" : NumberInt(1133),
    "location" : {
        "address" : {
            "street1" : "633 River Hwy",
            "city" : "Mooresville",
            "state" : "NC",
            "zipcode" : "28117"
        },
        "geo" : {
            "type" : "Point",
            "coordinates" : [
                -80.87305,
                35.59451
            ]
        }
    }
}
{
    "_id" : ObjectId("59a47286cfa9a3a73e51e7b0"),
    "theaterId" : NumberInt(1143),
    "location" : {
        "address" : {
            "street1" : "11855 N Oracle Rd",
            "city" : "Oro Valley",
            "state" : "AZ",
            "zipcode" : "85737"
        },
        "geo" : {
            "type" : "Point",
            "coordinates" : [
                -110.93728,
                32.42561
            ]
        }
    }
}
{
    "_id" : ObjectId("59a47286cfa9a3a73e51e7b1"),
    "theaterId" : NumberInt(1145),
    "location" : {
        "address" : {
            "street1" : "9680 Mission Gorge Rd",
            "city" : "Santee",
            "state" : "CA",
            "zipcode" : "92071"
        },
        "geo" : {
            "type" : "Point",
            "coordinates" : [
                -116.98512,
                32.83952
            ]
        }
    }
}
{
    "_id" : ObjectId("59a47286cfa9a3a73e51e7b2"),
    "theaterId" : NumberInt(1157),
    "location" : {
        "address" : {
            "street1" : "1977 Millerville Rd",
            "city" : "Baton Rouge",
            "state" : "LA",
            "zipcode" : "70816"
        },
        "geo" : {
            "type" : "Point",
            "coordinates" : [
                -91.019234,
                30.43948
            ]
        }
    }
}
{
    "_id" : ObjectId("59a47286cfa9a3a73e51e7b3"),
    "theaterId" : NumberInt(1147),
    "location" : {
        "address" : {
            "street1" : "3600 County Trunk Hwy A",
            "city" : "Kohler",
            "state" : "WI",
            "zipcode" : "53044"
        },
        "geo" : {
            "type" : "Point",
            "coordinates" : [
                -87.764252,
                43.711769
            ]
        }
    }
}
{
    "_id" : ObjectId("59a47286cfa9a3a73e51e7b4"),
    "theaterId" : NumberInt(1149),
    "location" : {
        "address" : {
            "street1" : "105 Shoppers Way",
            "city" : "Christiansburg",
            "state" : "VA",
            "zipcode" : "24073"
        },
        "geo" : {
            "type" : "Point",
            "coordinates" : [
                -80.423721,
                37.168324
            ]
        }
    }
}
{
    "_id" : ObjectId("59a47286cfa9a3a73e51e7b5"),
    "theaterId" : NumberInt(1148),
    "location" : {
        "address" : {
            "street1" : "2220 Promenade Blvd",
            "city" : "Rogers",
            "state" : "AR",
            "zipcode" : "72758"
        },
        "geo" : {
            "type" : "Point",
            "coordinates" : [
                -94.18157,
                36.30581
            ]
        }
    }
}
{
    "_id" : ObjectId("59a47286cfa9a3a73e51e7b6"),
    "theaterId" : NumberInt(113),
    "location" : {
        "address" : {
            "street1" : "26531 Bouquet Canyon Rd",
            "city" : "Santa Clarita",
            "state" : "CA",
            "zipcode" : "91350"
        },
        "geo" : {
            "type" : "Point",
            "coordinates" : [
                -118.53696,
                34.429134
            ]
        }
    }
}
{
    "_id" : ObjectId("59a47286cfa9a3a73e51e7b7"),
    "theaterId" : NumberInt(1152),
    "location" : {
        "address" : {
            "street1" : "1 Galleria Dr",
            "street2" : "J107",
            "city" : "Cheektowaga",
            "state" : "NY",
            "zipcode" : "14225"
        },
        "geo" : {
            "type" : "Point",
            "coordinates" : [
                -78.763435,
                42.914886
            ]
        }
    }
}
{
    "_id" : ObjectId("59a47286cfa9a3a73e51e7b8"),
    "theaterId" : NumberInt(1153),
    "location" : {
        "address" : {
            "street1" : "1201 Barbara Jordan Blvd",
            "city" : "Austin",
            "state" : "TX",
            "zipcode" : "78723"
        },
        "geo" : {
            "type" : "Point",
            "coordinates" : [
                -97.70874,
                30.306004
            ]
        }
    }
}
{
    "_id" : ObjectId("59a47286cfa9a3a73e51e7b9"),
    "theaterId" : NumberInt(1154),
    "location" : {
        "address" : {
            "street1" : "4180 Us Hwy 1",
            "street2" : "Ste 400C",
            "city" : "Monmouth Jct",
            "state" : "NJ",
            "zipcode" : "08852"
        },
        "geo" : {
            "type" : "Point",
            "coordinates" : [
                -74.57343,
                40.38204
            ]
        }
    }
}
{
    "_id" : ObjectId("59a47286cfa9a3a73e51e7ba"),
    "theaterId" : NumberInt(1155),
    "location" : {
        "address" : {
            "street1" : "10221 Perimeter Pkwy",
            "city" : "Charlotte",
            "state" : "NC",
            "zipcode" : "28216"
        },
        "geo" : {
            "type" : "Point",
            "coordinates" : [
                -80.85369,
                35.34679
            ]
        }
    }
}
{
    "_id" : ObjectId("59a47286cfa9a3a73e51e7bb"),
    "theaterId" : NumberInt(1156),
    "location" : {
        "address" : {
            "street1" : "3367 Daniels Rd",
            "city" : "Winter Garden",
            "state" : "FL",
            "zipcode" : "34787"
        },
        "geo" : {
            "type" : "Point",
            "coordinates" : [
                -81.586365,
                28.520824
            ]
        }
    }
}
{
    "_id" : ObjectId("59a47286cfa9a3a73e51e7bc"),
    "theaterId" : NumberInt(1168),
    "location" : {
        "address" : {
            "street1" : "1040 S State Road 7",
            "city" : "Wellington",
            "state" : "FL",
            "zipcode" : "33414"
        },
        "geo" : {
            "type" : "Point",
            "coordinates" : [
                -80.20118,
                26.66385
            ]
        }
    }
}
{
    "_id" : ObjectId("59a47286cfa9a3a73e51e7bd"),
    "theaterId" : NumberInt(116),
    "location" : {
        "address" : {
            "street1" : "21601 Victory Blvd",
            "city" : "Canoga Park",
            "state" : "CA",
            "zipcode" : "91303"
        },
        "geo" : {
            "type" : "Point",
            "coordinates" : [
                -118.59945,
                34.18998
            ]
        }
    }
}
{
    "_id" : ObjectId("59a47286cfa9a3a73e51e7be"),
    "theaterId" : NumberInt(115),
    "location" : {
        "address" : {
            "street1" : "25080 Madison Ave",
            "city" : "Murrieta",
            "state" : "CA",
            "zipcode" : "92562"
        },
        "geo" : {
            "type" : "Point",
            "coordinates" : [
                -117.198,
                33.557571
            ]
        }
    }
}
{
    "_id" : ObjectId("59a47286cfa9a3a73e51e7bf"),
    "theaterId" : NumberInt(1160),
    "location" : {
        "address" : {
            "street1" : "13238 Northwest Fwy",
            "city" : "Houston",
            "state" : "TX",
            "zipcode" : "77040"
        },
        "geo" : {
            "type" : "Point",
            "coordinates" : [
                -95.50827,
                29.852411
            ]
        }
    }
}
{
    "_id" : ObjectId("59a47286cfa9a3a73e51e7c0"),
    "theaterId" : NumberInt(1164),
    "location" : {
        "address" : {
            "street1" : "1015 Village Center Drive",
            "city" : "Tarentum",
            "state" : "PA",
            "zipcode" : "15084"
        },
        "geo" : {
            "type" : "Point",
            "coordinates" : [
                -79.838371,
                40.54586
            ]
        }
    }
}
{
    "_id" : ObjectId("59a47286cfa9a3a73e51e7c1"),
    "theaterId" : NumberInt(1162),
    "location" : {
        "address" : {
            "street1" : "100 S Colonial Dr",
            "city" : "Alabaster",
            "state" : "AL",
            "zipcode" : "35007"
        },
        "geo" : {
            "type" : "Point",
            "coordinates" : [
                -86.804466,
                33.225689
            ]
        }
    }
}
{
    "_id" : ObjectId("59a47286cfa9a3a73e51e7c2"),
    "theaterId" : NumberInt(1166),
    "location" : {
        "address" : {
            "street1" : "3200 Shoppers Dr",
            "city" : "Mchenry",
            "state" : "IL",
            "zipcode" : "60050"
        },
        "geo" : {
            "type" : "Point",
            "coordinates" : [
                -88.265358,
                42.361271
            ]
        }
    }
}
{
    "_id" : ObjectId("59a47286cfa9a3a73e51e7c3"),
    "theaterId" : NumberInt(1165),
    "location" : {
        "address" : {
            "street1" : "1072 Willow Road",
            "city" : "Northbrook",
            "state" : "IL",
            "zipcode" : "60062"
        },
        "geo" : {
            "type" : "Point",
            "coordinates" : [
                -87.80494,
                42.10671
            ]
        }
    }
}
{
    "_id" : ObjectId("59a47286cfa9a3a73e51e7c4"),
    "theaterId" : NumberInt(1167),
    "location" : {
        "address" : {
            "street1" : "770 Colemans Crossing Blvd",
            "city" : "Marysville",
            "state" : "OH",
            "zipcode" : "43040"
        },
        "geo" : {
            "type" : "Point",
            "coordinates" : [
                -83.34086,
                40.23074
            ]
        }
    }
}
{
    "_id" : ObjectId("59a47286cfa9a3a73e51e7c5"),
    "theaterId" : NumberInt(1169),
    "location" : {
        "address" : {
            "street1" : "1561 S Randall Rd",
            "city" : "Algonquin",
            "state" : "IL",
            "zipcode" : "60102"
        },
        "geo" : {
            "type" : "Point",
            "coordinates" : [
                -88.333092,
                42.156265
            ]
        }
    }
}
{
    "_id" : ObjectId("59a47286cfa9a3a73e51e7c6"),
    "theaterId" : NumberInt(1146),
    "location" : {
        "address" : {
            "street1" : "7643 Jordan Landing Blvd",
            "city" : "West Jordan",
            "state" : "UT",
            "zipcode" : "84084"
        },
        "geo" : {
            "type" : "Point",
            "coordinates" : [
                -111.98746,
                40.61105
            ]
        }
    }
}
{
    "_id" : ObjectId("59a47286cfa9a3a73e51e7c7"),
    "theaterId" : NumberInt(1159),
    "location" : {
        "address" : {
            "street1" : "3335 Cobb Pkwy Nw",
            "city" : "Acworth",
            "state" : "GA",
            "zipcode" : "30101"
        },
        "geo" : {
            "type" : "Point",
            "coordinates" : [
                -84.683434,
                34.034866
            ]
        }
    }
}
{
    "_id" : ObjectId("59a47286cfa9a3a73e51e7c8"),
    "theaterId" : NumberInt(1170),
    "location" : {
        "address" : {
            "street1" : "2600 Us Hwy 34",
            "city" : "Oswego",
            "state" : "IL",
            "zipcode" : "60543"
        },
        "geo" : {
            "type" : "Point",
            "coordinates" : [
                -88.32581,
                41.69234
            ]
        }
    }
}
{
    "_id" : ObjectId("59a47286cfa9a3a73e51e7c9"),
    "theaterId" : NumberInt(1171),
    "location" : {
        "address" : {
            "street1" : "6707 S Vine St",
            "street2" : "Ste. D",
            "city" : "Centennial",
            "state" : "CO",
            "zipcode" : "80122"
        },
        "geo" : {
            "type" : "Point",
            "coordinates" : [
                -104.96501,
                39.59486
            ]
        }
    }
}
{
    "_id" : ObjectId("59a47286cfa9a3a73e51e7ca"),
    "theaterId" : NumberInt(1172),
    "location" : {
        "address" : {
            "street1" : "610 Exterior Street",
            "city" : "Bronx",
            "state" : "NY",
            "zipcode" : "10451"
        },
        "geo" : {
            "type" : "Point",
            "coordinates" : [
                -73.9310055,
                40.8172327
            ]
        }
    }
}
{
    "_id" : ObjectId("59a47286cfa9a3a73e51e7cb"),
    "theaterId" : NumberInt(1174),
    "location" : {
        "address" : {
            "street1" : "10545 Hwy 49",
            "city" : "Gulfport",
            "state" : "MS",
            "zipcode" : "39503"
        },
        "geo" : {
            "type" : "Point",
            "coordinates" : [
                -89.097679,
                30.44689
            ]
        }
    }
}
{
    "_id" : ObjectId("59a47286cfa9a3a73e51e7cc"),
    "theaterId" : NumberInt(1177),
    "location" : {
        "address" : {
            "street1" : "215 Stafford Park Blvd",
            "city" : "Manahawkin",
            "state" : "NJ",
            "zipcode" : "08050"
        },
        "geo" : {
            "type" : "Point",
            "coordinates" : [
                -74.28497,
                39.71047
            ]
        }
    }
}
{
    "_id" : ObjectId("59a47286cfa9a3a73e51e7cd"),
    "theaterId" : NumberInt(1178),
    "location" : {
        "address" : {
            "street1" : "33590 S Dixie Hwy",
            "city" : "Florida City",
            "state" : "FL",
            "zipcode" : "33034"
        },
        "geo" : {
            "type" : "Point",
            "coordinates" : [
                -80.47569,
                25.45232
            ]
        }
    }
}
{
    "_id" : ObjectId("59a47286cfa9a3a73e51e7ce"),
    "theaterId" : NumberInt(117),
    "location" : {
        "address" : {
            "street1" : "12989 Park Plaza Dr",
            "city" : "Cerritos",
            "state" : "CA",
            "zipcode" : "90703"
        },
        "geo" : {
            "type" : "Point",
            "coordinates" : [
                -118.05516,
                33.86932
            ]
        }
    }
}
{
    "_id" : ObjectId("59a47286cfa9a3a73e51e7cf"),
    "theaterId" : NumberInt(1180),
    "location" : {
        "address" : {
            "street1" : "19350 #B Nordhoff Way",
            "city" : "Northridge",
            "state" : "CA",
            "zipcode" : "91324"
        },
        "geo" : {
            "type" : "Point",
            "coordinates" : [
                -118.55508,
                34.23403
            ]
        }
    }
}
{
    "_id" : ObjectId("59a47286cfa9a3a73e51e7d0"),
    "theaterId" : NumberInt(1183),
    "location" : {
        "address" : {
            "street1" : "3967 State Route 31",
            "city" : "Liverpool",
            "state" : "NY",
            "zipcode" : "13090"
        },
        "geo" : {
            "type" : "Point",
            "coordinates" : [
                -76.2364,
                43.18766
            ]
        }
    }
}
{
    "_id" : ObjectId("59a47286cfa9a3a73e51e7d1"),
    "theaterId" : NumberInt(1185),
    "location" : {
        "address" : {
            "street1" : "3040 Watson Blvd",
            "city" : "Warner Robins",
            "state" : "GA",
            "zipcode" : "31093"
        },
        "geo" : {
            "type" : "Point",
            "coordinates" : [
                -83.69113,
                32.61862
            ]
        }
    }
}
{
    "_id" : ObjectId("59a47286cfa9a3a73e51e7d2"),
    "theaterId" : NumberInt(1184),
    "location" : {
        "address" : {
            "street1" : "6300 Grandview Pkwy",
            "city" : "Davenport",
            "state" : "FL",
            "zipcode" : "33837"
        },
        "geo" : {
            "type" : "Point",
            "coordinates" : [
                -81.64426,
                28.24956
            ]
        }
    }
}
{
    "_id" : ObjectId("59a47286cfa9a3a73e51e7d3"),
    "theaterId" : NumberInt(1186),
    "location" : {
        "address" : {
            "street1" : "1810 Cumming Hwy",
            "street2" : "Suite 600",
            "city" : "Canton",
            "state" : "GA",
            "zipcode" : "30114"
        },
        "geo" : {
            "type" : "Point",
            "coordinates" : [
                -84.4603709,
                34.2379951
            ]
        }
    }
}
{
    "_id" : ObjectId("59a47286cfa9a3a73e51e7d4"),
    "theaterId" : NumberInt(1187),
    "location" : {
        "address" : {
            "street1" : "1046 N El Camino Real",
            "city" : "Encinitas",
            "state" : "CA",
            "zipcode" : "92024"
        },
        "geo" : {
            "type" : "Point",
            "coordinates" : [
                -117.26584,
                33.06663
            ]
        }
    }
}
{
    "_id" : ObjectId("59a47286cfa9a3a73e51e7d5"),
    "theaterId" : NumberInt(1188),
    "location" : {
        "address" : {
            "street1" : "655 W Herndon Ave",
            "city" : "Clovis",
            "state" : "CA",
            "zipcode" : "93612"
        },
        "geo" : {
            "type" : "Point",
            "coordinates" : [
                -119.72599,
                36.84002
            ]
        }
    }
}
{
    "_id" : ObjectId("59a47286cfa9a3a73e51e7d6"),
    "theaterId" : NumberInt(1189),
    "location" : {
        "address" : {
            "street1" : "2288 E Williams Field Rd",
            "city" : "Gilbert",
            "state" : "AZ",
            "zipcode" : "85295"
        },
        "geo" : {
            "type" : "Point",
            "coordinates" : [
                -111.73894,
                33.30795
            ]
        }
    }
}
{
    "_id" : ObjectId("59a47286cfa9a3a73e51e7d7"),
    "theaterId" : NumberInt(1190),
    "location" : {
        "address" : {
            "street1" : "1760 Grass Valley Highway",
            "city" : "Auburn",
            "state" : "CA",
            "zipcode" : "95603"
        },
        "geo" : {
            "type" : "Point",
            "coordinates" : [
                -121.086269,
                38.928965
            ]
        }
    }
}
{
    "_id" : ObjectId("59a47286cfa9a3a73e51e7d8"),
    "theaterId" : NumberInt(118),
    "location" : {
        "address" : {
            "street1" : "2300 N Rose Ave",
            "city" : "Oxnard",
            "state" : "CA",
            "zipcode" : "93036"
        },
        "geo" : {
            "type" : "Point",
            "coordinates" : [
                -119.15649,
                34.224163
            ]
        }
    }
}
{
    "_id" : ObjectId("59a47286cfa9a3a73e51e7d9"),
    "theaterId" : NumberInt(1191),
    "location" : {
        "address" : {
            "street1" : "11840 71st St",
            "city" : "Kenosha",
            "state" : "WI",
            "zipcode" : "53142"
        },
        "geo" : {
            "type" : "Point",
            "coordinates" : [
                -87.95186,
                42.57202
            ]
        }
    }
}
{
    "_id" : ObjectId("59a47286cfa9a3a73e51e7da"),
    "theaterId" : NumberInt(1192),
    "location" : {
        "address" : {
            "street1" : "1070 N Port Washington Rd",
            "city" : "Grafton",
            "state" : "WI",
            "zipcode" : "53024"
        },
        "geo" : {
            "type" : "Point",
            "coordinates" : [
                -87.92074,
                43.32195
            ]
        }
    }
}
{
    "_id" : ObjectId("59a47286cfa9a3a73e51e7db"),
    "theaterId" : NumberInt(1193),
    "location" : {
        "address" : {
            "street1" : "400 Front Street",
            "city" : "Collegeville",
            "state" : "PA",
            "zipcode" : "19426"
        },
        "geo" : {
            "type" : "Point",
            "coordinates" : [
                -75.451571,
                40.1856597
            ]
        }
    }
}
{
    "_id" : ObjectId("59a47286cfa9a3a73e51e7dc"),
    "theaterId" : NumberInt(1194),
    "location" : {
        "address" : {
            "street1" : "4210 Centerplace Dr",
            "city" : "Greeley",
            "state" : "CO",
            "zipcode" : "80634"
        },
        "geo" : {
            "type" : "Point",
            "coordinates" : [
                -104.7091322,
                40.4233142
            ]
        }
    }
}
{
    "_id" : ObjectId("59a47286cfa9a3a73e51e7dd"),
    "theaterId" : NumberInt(1197),
    "location" : {
        "address" : {
            "street1" : "1801 Hempstead Road",
            "city" : "Lancaster",
            "state" : "PA",
            "zipcode" : "17601"
        },
        "geo" : {
            "type" : "Point",
            "coordinates" : [
                -76.24735,
                40.04728
            ]
        }
    }
}
{
    "_id" : ObjectId("59a47286cfa9a3a73e51e7de"),
    "theaterId" : NumberInt(1252),
    "location" : {
        "address" : {
            "street1" : "3720 National Road E",
            "city" : "Richmond",
            "state" : "IN",
            "zipcode" : "47374"
        },
        "geo" : {
            "type" : "Point",
            "coordinates" : [
                -84.8507,
                39.831001
            ]
        }
    }
}
{
    "_id" : ObjectId("59a47286cfa9a3a73e51e7df"),
    "theaterId" : NumberInt(1258),
    "location" : {
        "address" : {
            "street1" : "2200 S University Dr",
            "city" : "Davie",
            "state" : "FL",
            "zipcode" : "33324"
        },
        "geo" : {
            "type" : "Point",
            "coordinates" : [
                -80.251185,
                26.094541
            ]
        }
    }
}
{
    "_id" : ObjectId("59a47286cfa9a3a73e51e7e0"),
    "theaterId" : NumberInt(119),
    "location" : {
        "address" : {
            "street1" : "901 S Coast Dr",
            "street2" : "Ste F",
            "city" : "Costa Mesa",
            "state" : "CA",
            "zipcode" : "92626"
        },
        "geo" : {
            "type" : "Point",
            "coordinates" : [
                -117.89194,
                33.6884
            ]
        }
    }
}
{
    "_id" : ObjectId("59a47286cfa9a3a73e51e7e1"),
    "theaterId" : NumberInt(120),
    "location" : {
        "address" : {
            "street1" : "1950 Santa Rosa Ave",
            "city" : "Santa Rosa",
            "state" : "CA",
            "zipcode" : "95407"
        },
        "geo" : {
            "type" : "Point",
            "coordinates" : [
                -122.71011,
                38.420128
            ]
        }
    }
}
{
    "_id" : ObjectId("59a47286cfa9a3a73e51e7e2"),
    "theaterId" : NumberInt(11),
    "location" : {
        "address" : {
            "street1" : "300 Northtown Dr Ne",
            "city" : "Blaine",
            "state" : "MN",
            "zipcode" : "55434"
        },
        "geo" : {
            "type" : "Point",
            "coordinates" : [
                -93.261429,
                45.126179
            ]
        }
    }
}
{
    "_id" : ObjectId("59a47286cfa9a3a73e51e7e3"),
    "theaterId" : NumberInt(121),
    "location" : {
        "address" : {
            "street1" : "7550 N Blackstone Ave",
            "city" : "Fresno",
            "state" : "CA",
            "zipcode" : "93720"
        },
        "geo" : {
            "type" : "Point",
            "coordinates" : [
                -119.78667,
                36.849934
            ]
        }
    }
}
{
    "_id" : ObjectId("59a47286cfa9a3a73e51e7e4"),
    "theaterId" : NumberInt(1224),
    "location" : {
        "address" : {
            "street1" : "384 S. Wadsworth Blvd",
            "city" : "Lakewood",
            "state" : "CO",
            "zipcode" : "80226"
        },
        "geo" : {
            "type" : "Point",
            "coordinates" : [
                -105.08081,
                39.71035
            ]
        }
    }
}
{
    "_id" : ObjectId("59a47286cfa9a3a73e51e7e5"),
    "theaterId" : NumberInt(1220),
    "location" : {
        "address" : {
            "street1" : "6000 E Lake Sammamish Parkway SE",
            "city" : "Issaquah",
            "state" : "WA",
            "zipcode" : "98027"
        },
        "geo" : {
            "type" : "Point",
            "coordinates" : [
                -122.04142,
                47.54935
            ]
        }
    }
}
{
    "_id" : ObjectId("59a47286cfa9a3a73e51e7e6"),
    "theaterId" : NumberInt(122),
    "location" : {
        "address" : {
            "street1" : "2050 N Rainbow Blvd",
            "city" : "Las Vegas",
            "state" : "NV",
            "zipcode" : "89108"
        },
        "geo" : {
            "type" : "Point",
            "coordinates" : [
                -115.24034,
                36.196686
            ]
        }
    }
}
{
    "_id" : ObjectId("59a47286cfa9a3a73e51e7e7"),
    "theaterId" : NumberInt(124),
    "location" : {
        "address" : {
            "street1" : "72369 Highway 111",
            "city" : "Palm Desert",
            "state" : "CA",
            "zipcode" : "92260"
        },
        "geo" : {
            "type" : "Point",
            "coordinates" : [
                -116.40418,
                33.726726
            ]
        }
    }
}
{
    "_id" : ObjectId("59a47286cfa9a3a73e51e7e8"),
    "theaterId" : NumberInt(123),
    "location" : {
        "address" : {
            "street1" : "575 E Wetmore Rd",
            "city" : "Tucson",
            "state" : "AZ",
            "zipcode" : "85705"
        },
        "geo" : {
            "type" : "Point",
            "coordinates" : [
                -110.96164,
                32.287407
            ]
        }
    }
}
{
    "_id" : ObjectId("59a47286cfa9a3a73e51e7e9"),
    "theaterId" : NumberInt(1198),
    "location" : {
        "address" : {
            "street1" : "2375 N Tustin St",
            "city" : "Orange",
            "state" : "CA",
            "zipcode" : "92865"
        },
        "geo" : {
            "type" : "Point",
            "coordinates" : [
                -117.83397,
                33.82801
            ]
        }
    }
}
{
    "_id" : ObjectId("59a47286cfa9a3a73e51e7ea"),
    "theaterId" : NumberInt(130),
    "location" : {
        "address" : {
            "street1" : "19929 Rinaldi St",
            "city" : "Northridge",
            "state" : "CA",
            "zipcode" : "91326"
        },
        "geo" : {
            "type" : "Point",
            "coordinates" : [
                -118.56584,
                34.276062
            ]
        }
    }
}
{
    "_id" : ObjectId("59a47286cfa9a3a73e51e7eb"),
    "theaterId" : NumberInt(125),
    "location" : {
        "address" : {
            "street1" : "3415 E Foothill Blvd",
            "city" : "Pasadena",
            "state" : "CA",
            "zipcode" : "91107"
        },
        "geo" : {
            "type" : "Point",
            "coordinates" : [
                -118.07932,
                34.150719
            ]
        }
    }
}
{
    "_id" : ObjectId("59a47286cfa9a3a73e51e7ec"),
    "theaterId" : NumberInt(1266),
    "location" : {
        "address" : {
            "street1" : "39 RHL Blvd",
            "city" : "Charleston",
            "state" : "WV",
            "zipcode" : "25309"
        },
        "geo" : {
            "type" : "Point",
            "coordinates" : [
                -81.71148,
                38.33651
            ]
        }
    }
}
{
    "_id" : ObjectId("59a47286cfa9a3a73e51e7ed"),
    "theaterId" : NumberInt(1267),
    "location" : {
        "address" : {
            "street1" : "430 Town Centre Dr",
            "city" : "Johnstown",
            "state" : "PA",
            "zipcode" : "15904"
        },
        "geo" : {
            "type" : "Point",
            "coordinates" : [
                -78.842452,
                40.276584
            ]
        }
    }
}
{
    "_id" : ObjectId("59a47286cfa9a3a73e51e7ee"),
    "theaterId" : NumberInt(126),
    "location" : {
        "address" : {
            "street1" : "23000 Savi Ranch Pkwy",
            "city" : "Yorba Linda",
            "state" : "CA",
            "zipcode" : "92885"
        },
        "geo" : {
            "type" : "Point",
            "coordinates" : [
                -117.73631,
                33.874023
            ]
        }
    }
}
{
    "_id" : ObjectId("59a47286cfa9a3a73e51e7ef"),
    "theaterId" : NumberInt(127),
    "location" : {
        "address" : {
            "street1" : "5101 Clark Ave",
            "city" : "Lakewood",
            "state" : "CA",
            "zipcode" : "90712"
        },
        "geo" : {
            "type" : "Point",
            "coordinates" : [
                -118.13409,
                33.852024
            ]
        }
    }
}
{
    "_id" : ObjectId("59a47286cfa9a3a73e51e7f0"),
    "theaterId" : NumberInt(137),
    "location" : {
        "address" : {
            "street1" : "1501 N Victory Pl",
            "city" : "Burbank",
            "state" : "CA",
            "zipcode" : "91504"
        },
        "geo" : {
            "type" : "Point",
            "coordinates" : [
                -118.32756,
                34.189072
            ]
        }
    }
}
{
    "_id" : ObjectId("59a47286cfa9a3a73e51e7f1"),
    "theaterId" : NumberInt(128),
    "location" : {
        "address" : {
            "street1" : "5575 S Virginia St",
            "city" : "Reno",
            "state" : "NV",
            "zipcode" : "89502"
        },
        "geo" : {
            "type" : "Point",
            "coordinates" : [
                -119.78868,
                39.475178
            ]
        }
    }
}
{
    "_id" : ObjectId("59a47286cfa9a3a73e51e7f2"),
    "theaterId" : NumberInt(129),
    "location" : {
        "address" : {
            "street1" : "1236 Galleria Blvd",
            "city" : "Roseville",
            "state" : "CA",
            "zipcode" : "95678"
        },
        "geo" : {
            "type" : "Point",
            "coordinates" : [
                -121.26063,
                38.773228
            ]
        }
    }
}
{
    "_id" : ObjectId("59a47286cfa9a3a73e51e7f3"),
    "theaterId" : NumberInt(131),
    "location" : {
        "address" : {
            "street1" : "8960 Central Ave",
            "city" : "Montclair",
            "state" : "CA",
            "zipcode" : "91763"
        },
        "geo" : {
            "type" : "Point",
            "coordinates" : [
                -117.69006,
                34.091671
            ]
        }
    }
}
{
    "_id" : ObjectId("59a47286cfa9a3a73e51e7f4"),
    "theaterId" : NumberInt(1199),
    "location" : {
        "address" : {
            "street1" : "9652 Main Street",
            "city" : "Fairfax",
            "state" : "VA",
            "zipcode" : "22031"
        },
        "geo" : {
            "type" : "Point",
            "coordinates" : [
                -77.277419,
                38.841902
            ]
        }
    }
}
{
    "_id" : ObjectId("59a47286cfa9a3a73e51e7f5"),
    "theaterId" : NumberInt(133),
    "location" : {
        "address" : {
            "street1" : "1901 Arden Way",
            "city" : "Sacramento",
            "state" : "CA",
            "zipcode" : "95815"
        },
        "geo" : {
            "type" : "Point",
            "coordinates" : [
                -121.42125,
                38.59877
            ]
        }
    }
}
{
    "_id" : ObjectId("59a47286cfa9a3a73e51e7f6"),
    "theaterId" : NumberInt(134),
    "location" : {
        "address" : {
            "street1" : "4820 Dublin Blvd",
            "city" : "Dublin",
            "state" : "CA",
            "zipcode" : "94568"
        },
        "geo" : {
            "type" : "Point",
            "coordinates" : [
                -121.88036,
                37.70369
            ]
        }
    }
}
{
    "_id" : ObjectId("59a47286cfa9a3a73e51e7f7"),
    "theaterId" : NumberInt(1388),
    "location" : {
        "address" : {
            "street1" : "2020 Hammond Square Dr",
            "city" : "Hammond",
            "state" : "LA",
            "zipcode" : "70403"
        },
        "geo" : {
            "type" : "Point",
            "coordinates" : [
                -90.4611995,
                30.5043583
            ]
        }
    }
}
{
    "_id" : ObjectId("59a47286cfa9a3a73e51e7f8"),
    "theaterId" : NumberInt(138),
    "location" : {
        "address" : {
            "street1" : "1490 Fitzgerald Rd",
            "city" : "Pinole",
            "state" : "CA",
            "zipcode" : "94564"
        },
        "geo" : {
            "type" : "Point",
            "coordinates" : [
                -122.30667,
                37.990162
            ]
        }
    }
}
{
    "_id" : ObjectId("59a47286cfa9a3a73e51e7f9"),
    "theaterId" : NumberInt(12),
    "location" : {
        "address" : {
            "street1" : "4130 W Division St",
            "city" : "Saint Cloud",
            "state" : "MN",
            "zipcode" : "56301"
        },
        "geo" : {
            "type" : "Point",
            "coordinates" : [
                -94.209656,
                45.55275
            ]
        }
    }
}
{
    "_id" : ObjectId("59a47286cfa9a3a73e51e7fa"),
    "theaterId" : NumberInt(1380),
    "location" : {
        "address" : {
            "street1" : "3209 Vestal Parkway East",
            "city" : "Vestal",
            "state" : "NY",
            "zipcode" : "13850"
        },
        "geo" : {
            "type" : "Point",
            "coordinates" : [
                -75.9973,
                42.09728
            ]
        }
    }
}
{
    "_id" : ObjectId("59a47286cfa9a3a73e51e7fb"),
    "theaterId" : NumberInt(1381),
    "location" : {
        "address" : {
            "street1" : "875 N Michigan Ave",
            "city" : "Chicago",
            "state" : "IL",
            "zipcode" : "60611"
        },
        "geo" : {
            "type" : "Point",
            "coordinates" : [
                -87.623052,
                41.898798
            ]
        }
    }
}
{
    "_id" : ObjectId("59a47286cfa9a3a73e51e7fc"),
    "theaterId" : NumberInt(1382),
    "location" : {
        "address" : {
            "street1" : "11491 Parkside Dr",
            "city" : "Farragut",
            "state" : "TN",
            "zipcode" : "37934"
        },
        "geo" : {
            "type" : "Point",
            "coordinates" : [
                -84.16388,
                35.90045
            ]
        }
    }
}
{
    "_id" : ObjectId("59a47286cfa9a3a73e51e7fd"),
    "theaterId" : NumberInt(1383),
    "location" : {
        "address" : {
            "street1" : "1389 Wendy Court",
            "city" : "Spring Hill",
            "state" : "FL",
            "zipcode" : "34607"
        },
        "geo" : {
            "type" : "Point",
            "coordinates" : [
                -82.61861,
                28.47326
            ]
        }
    }
}
{
    "_id" : ObjectId("59a47286cfa9a3a73e51e7fe"),
    "theaterId" : NumberInt(1385),
    "location" : {
        "address" : {
            "street1" : "45 Plaza PL",
            "city" : "Waynesville",
            "state" : "NC",
            "zipcode" : "28786-6875"
        },
        "geo" : {
            "type" : "Point",
            "coordinates" : [
                -83.01149,
                35.46517
            ]
        }
    }
}
{
    "_id" : ObjectId("59a47286cfa9a3a73e51e7ff"),
    "theaterId" : NumberInt(1386),
    "location" : {
        "address" : {
            "street1" : "8401 Fletcher Pkwy",
            "city" : "La Mesa",
            "state" : "CA",
            "zipcode" : "91942"
        },
        "geo" : {
            "type" : "Point",
            "coordinates" : [
                -117.01664,
                32.77816
            ]
        }
    }
}
{
    "_id" : ObjectId("59a47286cfa9a3a73e51e800"),
    "theaterId" : NumberInt(1387),
    "location" : {
        "address" : {
            "street1" : "187 Creekside Way",
            "city" : "New Braunfels",
            "state" : "TX",
            "zipcode" : "78130"
        },
        "geo" : {
            "type" : "Point",
            "coordinates" : [
                -98.07806,
                29.72633
            ]
        }
    }
}
{
    "_id" : ObjectId("59a47286cfa9a3a73e51e801"),
    "theaterId" : NumberInt(13),
    "location" : {
        "address" : {
            "street1" : "1615 38th St S",
            "city" : "Fargo",
            "state" : "ND",
            "zipcode" : "58103"
        },
        "geo" : {
            "type" : "Point",
            "coordinates" : [
                -96.842743,
                46.857113
            ]
        }
    }
}
{
    "_id" : ObjectId("59a47286cfa9a3a73e51e802"),
    "theaterId" : NumberInt(136),
    "location" : {
        "address" : {
            "street1" : "1547 Gateway Blvd",
            "city" : "Fairfield",
            "state" : "CA",
            "zipcode" : "94533"
        },
        "geo" : {
            "type" : "Point",
            "coordinates" : [
                -122.05458,
                38.260357
            ]
        }
    }
}
{
    "_id" : ObjectId("59a47286cfa9a3a73e51e803"),
    "theaterId" : NumberInt(1403),
    "location" : {
        "address" : {
            "street1" : "4413 Birkland Place",
            "city" : "Easton",
            "state" : "PA",
            "zipcode" : "18045"
        },
        "geo" : {
            "type" : "Point",
            "coordinates" : [
                -75.2858,
                40.65766
            ]
        }
    }
}
{
    "_id" : ObjectId("59a47286cfa9a3a73e51e804"),
    "theaterId" : NumberInt(1394),
    "location" : {
        "address" : {
            "street1" : "128 Bailey Farm Rd",
            "city" : "Monroe",
            "state" : "NY",
            "zipcode" : "10950"
        },
        "geo" : {
            "type" : "Point",
            "coordinates" : [
                -74.15178,
                41.3194
            ]
        }
    }
}
{
    "_id" : ObjectId("59a47286cfa9a3a73e51e805"),
    "theaterId" : NumberInt(1395),
    "location" : {
        "address" : {
            "street1" : "646 N West End Blvd",
            "city" : "Quakertown",
            "state" : "PA",
            "zipcode" : "18951"
        },
        "geo" : {
            "type" : "Point",
            "coordinates" : [
                -75.36817,
                40.46084
            ]
        }
    }
}
{
    "_id" : ObjectId("59a47286cfa9a3a73e51e806"),
    "theaterId" : NumberInt(1396),
    "location" : {
        "address" : {
            "street1" : "2165 Bronze Star Dr.",
            "city" : "Woodland",
            "state" : "CA",
            "zipcode" : "95776-5406"
        },
        "geo" : {
            "type" : "Point",
            "coordinates" : [
                -121.72698,
                38.67245
            ]
        }
    }
}
{
    "_id" : ObjectId("59a47286cfa9a3a73e51e807"),
    "theaterId" : NumberInt(1397),
    "location" : {
        "address" : {
            "street1" : "19125 W. Lake Houston Pkwy",
            "city" : "Humble",
            "state" : "TX",
            "zipcode" : "77346"
        },
        "geo" : {
            "type" : "Point",
            "coordinates" : [
                -95.16158,
                29.99776
            ]
        }
    }
}
{
    "_id" : ObjectId("59a47286cfa9a3a73e51e808"),
    "theaterId" : NumberInt(1399),
    "location" : {
        "address" : {
            "street1" : "5821 Poplar Ave",
            "city" : "Memphis",
            "state" : "TN",
            "zipcode" : "38119"
        },
        "geo" : {
            "type" : "Point",
            "coordinates" : [
                -89.867362,
                35.103514
            ]
        }
    }
}
{
    "_id" : ObjectId("59a47286cfa9a3a73e51e809"),
    "theaterId" : NumberInt(1400),
    "location" : {
        "address" : {
            "street1" : "2833 W Ridge Rd",
            "city" : "Rochester",
            "state" : "NY",
            "zipcode" : "14626"
        },
        "geo" : {
            "type" : "Point",
            "coordinates" : [
                -77.691307,
                43.209003
            ]
        }
    }
}
{
    "_id" : ObjectId("59a47286cfa9a3a73e51e80a"),
    "theaterId" : NumberInt(135),
    "location" : {
        "address" : {
            "street1" : "3260 Buskirk Ave",
            "city" : "Pleasant Hill",
            "state" : "CA",
            "zipcode" : "94523"
        },
        "geo" : {
            "type" : "Point",
            "coordinates" : [
                -122.0574,
                37.942162
            ]
        }
    }
}
{
    "_id" : ObjectId("59a47286cfa9a3a73e51e80b"),
    "theaterId" : NumberInt(1402),
    "location" : {
        "address" : {
            "street1" : "763 W Grasslands Dr",
            "city" : "American Fork",
            "state" : "UT",
            "zipcode" : "84003"
        },
        "geo" : {
            "type" : "Point",
            "coordinates" : [
                -111.81945,
                40.383049
            ]
        }
    }
}
{
    "_id" : ObjectId("59a47286cfa9a3a73e51e80c"),
    "theaterId" : NumberInt(1401),
    "location" : {
        "address" : {
            "street1" : "9055 N 121st East Ave",
            "city" : "Owasso",
            "state" : "OK",
            "zipcode" : "74055"
        },